[
  {
    "team_id": 1610612737,
    "name": "Atlanta Hawks",
    "city": "Atlanta",
    "state": "Georgia",
    "abbreviation": "ATL",
    "total_wins": 2201,
    "total_losses": 2249,
    "win_pct": 0.495,
    "championships": 0,
    "lat": 33.749,
    "lng": -84.388
  },
  {
    "team_id": 1610612738,
    "name": "Boston Celtics",
    "city": "Boston",
    "state": "Massachusetts",
    "abbreviation": "BOS",
    "total_wins": 3626,
    "total_losses": 2581,
    "win_pct": 0.584,
    "championships": 0,
    "lat": 42.36,
    "lng": -71.058
  },
  {
    "team_id": 1610612739,
    "name": "Cleveland Cavaliers",
    "city": "Cleveland",
    "state": "Ohio",
    "abbreviation": "CLE",
    "total_wins": 2015,
    "total_losses": 2243,
    "win_pct": 0.473,
    "championships": 0,
    "lat": 41.499,
    "lng": -81.694
  },
  {
    "team_id": 1610612740,
    "name": "New Orleans Pelicans",
    "city": "New Orleans",
    "state": "Louisiana",
    "abbreviation": "NOP",
    "total_wins": 394,
    "total_losses": 468,
    "win_pct": 0.457,
    "championships": 0,
    "lat": 29.951,
    "lng": -90.071
  },
  {
    "team_id": 1610612741,
    "name": "Chicago Bulls",
    "city": "Chicago",
    "state": "Illinois",
    "abbreviation": "CHI",
    "total_wins": 2377,
    "total_losses": 2231,
    "win_pct": 0.516,
    "championships": 0,
    "lat": 41.878,
    "lng": -87.629
  },
  {
    "team_id": 1610612742,
    "name": "Dallas Mavericks",
    "city": "Dallas",
    "state": "Texas",
    "abbreviation": "DAL",
    "total_wins": 1846,
    "total_losses": 1832,
    "win_pct": 0.502,
    "championships": 0,
    "lat": 32.776,
    "lng": -96.796
  },
  {
    "team_id": 1610612743,
    "name": "Denver Nuggets",
    "city": "Denver",
    "state": "Colorado",
    "abbreviation": "DEN",
    "total_wins": 1936,
    "total_losses": 2001,
    "win_pct": 0.492,
    "championships": 0,
    "lat": 39.739,
    "lng": -104.99
  },
  {
    "team_id": 1610612744,
    "name": "Golden State Warriors",
    "city": "San Francisco",
    "state": "California",
    "abbreviation": "GSW",
    "total_wins": 1171,
    "total_losses": 1154,
    "win_pct": 0.504,
    "championships": 0,
    "lat": 37.774,
    "lng": -122.419
  },
  {
    "team_id": 1610612745,
    "name": "Houston Rockets",
    "city": "Houston",
    "state": "Texas",
    "abbreviation": "HOU",
    "total_wins": 2277,
    "total_losses": 2056,
    "win_pct": 0.526,
    "championships": 0,
    "lat": 29.76,
    "lng": -95.369
  },
  {
    "team_id": 1610612746,
    "name": "Los Angeles Clippers",
    "city": "Los Angeles",
    "state": "California",
    "abbreviation": "LAC",
    "total_wins": 1388,
    "total_losses": 1871,
    "win_pct": 0.426,
    "championships": 0,
    "lat": 34.052,
    "lng": -118.243
  },
  {
    "team_id": 1610612747,
    "name": "Los Angeles Lakers",
    "city": "Los Angeles",
    "state": "California",
    "abbreviation": "LAL",
    "total_wins": 3123,
    "total_losses": 2080,
    "win_pct": 0.6,
    "championships": 0,
    "lat": 34.052,
    "lng": -118.243
  },
  {
    "team_id": 1610612748,
    "name": "Miami Heat",
    "city": "Miami",
    "state": "Florida",
    "abbreviation": "MIA",
    "total_wins": 1594,
    "total_losses": 1477,
    "win_pct": 0.519,
    "championships": 0,
    "lat": 25.761,
    "lng": -80.191
  },
  {
    "team_id": 1610612749,
    "name": "Milwaukee Bucks",
    "city": "Milwaukee",
    "state": "Wisconsin",
    "abbreviation": "MIL",
    "total_wins": 2345,
    "total_losses": 2165,
    "win_pct": 0.52,
    "championships": 0,
    "lat": 43.038,
    "lng": -87.906
  },
  {
    "team_id": 1610612750,
    "name": "Minnesota Timberwolves",
    "city": "Minneapolis",
    "state": "Minnesota",
    "abbreviation": "MIN",
    "total_wins": 1138,
    "total_losses": 1646,
    "win_pct": 0.409,
    "championships": 0,
    "lat": 44.977,
    "lng": -93.265
  },
  {
    "team_id": 1610612751,
    "name": "Brooklyn Nets",
    "city": "Brooklyn",
    "state": "New York",
    "abbreviation": "BKN",
    "total_wins": 408,
    "total_losses": 491,
    "win_pct": 0.454,
    "championships": 0,
    "lat": 0,
    "lng": 0
  },
  {
    "team_id": 1610612752,
    "name": "New York Knicks",
    "city": "New York",
    "state": "New York",
    "abbreviation": "NYK",
    "total_wins": 2863,
    "total_losses": 3014,
    "win_pct": 0.487,
    "championships": 0,
    "lat": 40.712,
    "lng": -74.005
  },
  {
    "team_id": 1610612753,
    "name": "Orlando Magic",
    "city": "Orlando",
    "state": "Florida",
    "abbreviation": "ORL",
    "total_wins": 1363,
    "total_losses": 1493,
    "win_pct": 0.477,
    "championships": 0,
    "lat": 28.538,
    "lng": -81.379
  },
  {
    "team_id": 1610612754,
    "name": "Indiana Pacers",
    "city": "Indianapolis",
    "state": "Indiana",
    "abbreviation": "IND",
    "total_wins": 1932,
    "total_losses": 1974,
    "win_pct": 0.495,
    "championships": 0,
    "lat": 39.768,
    "lng": -86.158
  },
  {
    "team_id": 1610612755,
    "name": "Philadelphia 76ers",
    "city": "Philadelphia",
    "state": "Pennsylvania",
    "abbreviation": "PHI",
    "total_wins": 1096,
    "total_losses": 1203,
    "win_pct": 0.477,
    "championships": 0,
    "lat": 39.952,
    "lng": -75.165
  },
  {
    "team_id": 1610612756,
    "name": "Phoenix Suns",
    "city": "Phoenix",
    "state": "Arizona",
    "abbreviation": "PHX",
    "total_wins": 2424,
    "total_losses": 2066,
    "win_pct": 0.54,
    "championships": 0,
    "lat": 33.448,
    "lng": -112.074
  },
  {
    "team_id": 1610612757,
    "name": "Portland Trail Blazers",
    "city": "Portland",
    "state": "Oregon",
    "abbreviation": "POR",
    "total_wins": 2274,
    "total_losses": 2023,
    "win_pct": 0.529,
    "championships": 0,
    "lat": 45.515,
    "lng": -122.678
  },
  {
    "team_id": 1610612758,
    "name": "Sacramento Kings",
    "city": "Sacramento",
    "state": "California",
    "abbreviation": "SAC",
    "total_wins": 1341,
    "total_losses": 1775,
    "win_pct": 0.43,
    "championships": 0,
    "lat": 38.581,
    "lng": -121.494
  },
  {
    "team_id": 1610612759,
    "name": "San Antonio Spurs",
    "city": "San Antonio",
    "state": "Texas",
    "abbreviation": "SAS",
    "total_wins": 1511,
    "total_losses": 903,
    "win_pct": 0.626,
    "championships": 0,
    "lat": 29.424,
    "lng": -98.493
  },
  {
    "team_id": 1610612760,
    "name": "Oklahoma City Thunder",
    "city": "Oklahoma City",
    "state": "Oklahoma",
    "abbreviation": "OKC",
    "total_wins": 701,
    "total_losses": 596,
    "win_pct": 0.54,
    "championships": 0,
    "lat": 35.467,
    "lng": -97.516
  },
  {
    "team_id": 1610612761,
    "name": "Toronto Raptors",
    "city": "Toronto",
    "state": "Ontario",
    "abbreviation": "TOR",
    "total_wins": 1154,
    "total_losses": 1207,
    "win_pct": 0.489,
    "championships": 0,
    "lat": 43.653,
    "lng": -79.383
  },
  {
    "team_id": 1610612762,
    "name": "Utah Jazz",
    "city": "Salt Lake City",
    "state": "Utah",
    "abbreviation": "UTA",
    "total_wins": 1318,
    "total_losses": 1004,
    "win_pct": 0.568,
    "championships": 0,
    "lat": 40.76,
    "lng": -111.89
  },
  {
    "team_id": 1610612763,
    "name": "Memphis Grizzlies",
    "city": "Memphis",
    "state": "Tennessee",
    "abbreviation": "MEM",
    "total_wins": 912,
    "total_losses": 974,
    "win_pct": 0.484,
    "championships": 0,
    "lat": 35.149,
    "lng": -90.048
  },
  {
    "team_id": 1610612764,
    "name": "Washington Wizards",
    "city": "Washington",
    "state": "District of Columbia",
    "abbreviation": "WAS",
    "total_wins": 1924,
    "total_losses": 2342,
    "win_pct": 0.451,
    "championships": 0,
    "lat": 38.907,
    "lng": -77.036
  },
  {
    "team_id": 1610612765,
    "name": "Detroit Pistons",
    "city": "Detroit",
    "state": "Michigan",
    "abbreviation": "DET",
    "total_wins": 2448,
    "total_losses": 2662,
    "win_pct": 0.479,
    "championships": 0,
    "lat": 42.331,
    "lng": -83.045
  },
  {
    "team_id": 1610612766,
    "name": "Charlotte Hornets",
    "city": "Charlotte",
    "state": "North Carolina",
    "abbreviation": "CHO",
    "total_wins": 0,
    "total_losses": 0,
    "win_pct": 0,
    "championships": 0,
    "lat": 35.227,
    "lng": -80.843
  }
]